[
  {
    "city": "Rome",
    "lat": 41.9028,
    "lon": 12.4964,
    "ear_length": 8,
    "eye_width": 5,
    "head_size": 6,
    "tail_length": 7,
    "color": "#d4a0ff"
  },
  {
    "city": "Milan",
    "lat": 45.4642,
    "lon": 9.19,
    "ear_length": 6,
    "eye_width": 4,
    "head_size": 5,
    "tail_length": 8,
    "color": "#77dd77"
  },
  {
    "city": "Naples",
    "lat": 40.8518,
    "lon": 14.2681,
    "ear_length": 7,
    "eye_width": 6,
    "head_size": 5,
    "tail_length": 6,
    "color": "#aec6cf"
  },
  {
    "city": "Turin",
    "lat": 45.0703,
    "lon": 7.6869,
    "ear_length": 5,
    "eye_width": 5,
    "head_size": 4,
    "tail_length": 5,
    "color": "#ffb347"
  },
  {
    "city": "Palermo",
    "lat": 38.1157,
    "lon": 13.3615,
    "ear_length": 9,
    "eye_width": 7,
    "head_size": 7,
    "tail_length": 9,
    "color": "#ffb7ce"
  },
  {
    "city": "Genoa",
    "lat": 44.4056,
    "lon": 8.9463,
    "ear_length": 5,
    "eye_width": 6,
    "head_size": 5,
    "tail_length": 6,
    "color": "#b39eb5"
  },
  {
    "city": "Bologna",
    "lat": 44.4949,
    "lon": 11.3426,
    "ear_length": 6,
    "eye_width": 5,
    "head_size": 6,
    "tail_length": 7,
    "color": "#cff27e"
  },
  {
    "city": "Florence",
    "lat": 43.7696,
    "lon": 11.2558,
    "ear_length": 7,
    "eye_width": 4,
    "head_size": 6,
    "tail_length": 8,
    "color": "#b19cd9"
  },
  {
    "city": "Bari",
    "lat": 41.1171,
    "lon": 16.8719,
    "ear_length": 6,
    "eye_width": 5,
    "head_size": 5,
    "tail_length": 7,
    "color": "#fdfd96"
  },
  {
    "city": "Venice",
    "lat": 45.4408,
    "lon": 12.3155,
    "ear_length": 5,
    "eye_width": 7,
    "head_size": 5,
    "tail_length": 6,
    "color": "#cfcfc4"
  }
]
