[
  {
    "city": "Rome",
    "lat": 41.9028,
    "lon": 12.4964,
    "ear_length": 8,
    "eye_width": 5,
    "head_size": 6,
    "tail_length": 7,
    "color": "#2176AB"
  },
  {
    "city": "Milan",
    "lat": 45.4642,
    "lon": 9.19,
    "ear_length": 6,
    "eye_width": 4,
    "head_size": 5,
    "tail_length": 8,
    "color": "#F97662"
  },
  {
    "city": "Naples",
    "lat": 40.8518,
    "lon": 14.2681,
    "ear_length": 7,
    "eye_width": 6,
    "head_size": 5,
    "tail_length": 6,
    "color": "#FC9B31"
  },
  {
    "city": "Turin",
    "lat": 45.0703,
    "lon": 7.6869,
    "ear_length": 5,
    "eye_width": 5,
    "head_size": 4,
    "tail_length": 5,
    "color": "#FFBF00"
  },
  {
    "city": "Palermo",
    "lat": 38.1157,
    "lon": 13.3615,
    "ear_length": 9,
    "eye_width": 3,
    "head_size": 8,
    "tail_length": 5,
    "color": "#A8C43C"
  },
  {
    "city": "Genoa",
    "lat": 44.4056,
    "lon": 8.9463,
    "ear_length": 5,
    "eye_width": 6,
    "head_size": 2,
    "tail_length": 6,
    "color": "#50C878"
  },
  {
    "city": "Bologna",
    "lat": 44.4949,
    "lon": 11.3426,
    "ear_length": 6,
    "eye_width": 5,
    "head_size": 6,
    "tail_length": 7,
    "color": "#B284BE"
  },
  {
    "city": "Florence",
    "lat": 43.7696,
    "lon": 11.2558,
    "ear_length": 7,
    "eye_width": 4,
    "head_size": 6,
    "tail_length": 8,
    "color": "#b19cd9"
  },
  {
    "city": "Bari",
    "lat": 41.1171,
    "lon": 16.8719,
    "ear_length": 6,
    "eye_width": 5,
    "head_size": 5,
    "tail_length": 7,
    "color": "#A24806"
  },
  {
    "city": "Venice",
    "lat": 45.4408,
    "lon": 12.3155,
    "ear_length": 5,
    "eye_width": 7,
    "head_size": 5,
    "tail_length": 6,
    "color": "#444"
  }
]
